Trek_Name,District,Difficulty,Height_m,Best_Season,Historical_Significance,Description,Latitude,Longitude
"Goechala Trek","West Sikkim","Hard",4940,"Apr-Jun,Sep-Nov","Viewpoint of Kanchenjunga","High-altitude trek with stunning sunrise views",27.336,88.220
"Dzongri Trek","West Sikkim","Moderate",4020,"Apr-Jun,Sep-Nov","Base trail to Kanchenjunga","Short high-altitude trek",27.341,88.197
"Green Lake Trek","North Sikkim","Hard",5050,"Apr-Jun,Sep-Nov","Remote Kanchenjunga base region","Isolated high-altitude trek",27.720,88.530
"Singalila Ridge Trek","Darjeeling","Moderate",3636,"Oct-Apr","Indo-Nepal ridge","Views of Everest and Kanchenjunga",27.150,88.050
"Sandakphu Trek","Darjeeling","Moderate",3636,"Oct-Apr","Highest point in West Bengal","Panoramic Himalayan trek",27.105,88.020
"Phalut Trek","Darjeeling","Moderate",3600,"Oct-Apr","Historic ridge trail","Extended ridge trek",27.110,88.000
"Yuksom to Tashiding","West Sikkim","Easy",1800,"Year-round","Ancient pilgrimage route","Cultural village trek",27.370,88.220
"Barsey Rhododendron Trek","West Sikkim","Easy",3040,"Mar-May","Floral biodiversity","Forest trek with rhododendrons",27.320,88.150
"Maenam Hill Trek","South Sikkim","Easy",3146,"Oct-Apr","Sacred mountain","Short summit trek",27.220,88.370
"Tendong Hill Trek","South Sikkim","Easy",2600,"Oct-Apr","Lepcha mythology","Sacred hill trek",27.250,88.400
"Talley Valley Trek","Lower Subansiri","Moderate",3000,"Oct-Apr","Biodiversity hotspot","Dense forest trek",27.620,93.820
"Dapha Bum Trek","Changlang","Hard",4570,"Oct-Apr","Highest peak in Arunachal","Challenging summit trek",27.400,96.500
"Gorichen Base Camp","Tawang","Hard",4800,"Apr-Jun,Sep-Oct","Sacred peak","Remote high-altitude trek",27.600,91.900
"Sela Pass Trek","Tawang","Moderate",4170,"Apr-Oct","Historic trade route","High-altitude pass trek",27.500,92.100
"Bum La Trek","Tawang","Moderate",4633,"Apr-Oct","Indo-China border route","High-altitude scenic trek",27.630,91.830
"Madhuri Lake Trek","Tawang","Easy",3700,"Apr-Oct","Tourist attraction","Short scenic trek",27.620,91.860
"Ziro Valley Trek","Lower Subansiri","Easy",1500,"Year-round","Apatani tribe region","Cultural valley trek",27.550,93.830
"Mechuka Trek","Shi Yomi","Moderate",1800,"Oct-Apr","Historic valley","Remote scenic trek",28.600,94.120
"Anini Trek","Dibang Valley","Moderate",2000,"Oct-Apr","Remote tribal region","Untouched valley trek",28.800,95.900
"Pasighat Trek","East Siang","Easy",1500,"Year-round","Oldest town in Arunachal","River valley trek",28.070,95.330
"Dzukou Valley Trek","Kohima","Moderate",2450,"Jun-Sep","Valley of flowers of Northeast","Rolling hills and seasonal blooms",25.570,94.050
"Japfu Peak Trek","Kohima","Hard",3048,"Oct-Apr","Second highest peak in Nagaland","Summit trek with forest trails",25.570,94.080
"Saramati Peak Trek","Kiphire","Hard",3826,"Oct-Apr","Highest peak in Nagaland","Remote mountain trek",25.900,95.100
"Khonoma Trek","Kohima","Easy",1500,"Year-round","Asia’s first green village","Cultural eco trek",25.630,94.020
"Intanki Trek","Peren","Easy",1000,"Nov-Apr","Wildlife sanctuary","Jungle trekking experience",25.500,93.700
"Shilloi Lake Trek","Phek","Easy",1200,"Oct-Apr","Sacred lake","Short cultural trek",25.200,94.800
"Dzukou to Viswema Trek","Kohima","Moderate",2450,"Jun-Sep","Traditional route","Alternate valley trail",25.560,94.060
"Mount Koubru Trek","Imphal West","Moderate",2564,"Oct-Apr","Sacred mountain in Manipur","Forest trek with views",24.900,93.800
"Tharon Cave Trek","Tamenglong","Moderate",800,"Nov-Apr","Historical cave site","Adventure cave trek",24.900,93.200
"Loktak Lake Trek","Bishnupur","Easy",768,"Year-round","Floating lake","Unique lake trek",24.550,93.830
"Keibul Lamjao Trek","Bishnupur","Easy",768,"Year-round","Only floating national park","Wildlife trekking",24.500,93.830
"Dampa Tiger Reserve Trek","Mamit","Moderate",1100,"Nov-Apr","Wildlife reserve","Dense forest trek",24.220,92.880
"Reiek Peak Trek","Aizawl","Easy",1548,"Oct-Apr","Historic village","Short scenic trek",23.750,92.670
"Phawngpui Trek","Lawngtlai","Moderate",2157,"Oct-Apr","Highest peak in Mizoram","Blue Mountain trek",22.650,93.030
"Hmuifang Trek","Aizawl","Easy",1619,"Oct-Apr","Cultural region","Forest trekking",23.420,92.800
"Vantawng Falls Trek","Serchhip","Easy",750,"Oct-Apr","Highest waterfall in Mizoram","Short waterfall trek",23.300,92.750
"Unakoti Trek","Unakoti","Easy",150,"Oct-Apr","Ancient rock carvings","Heritage trek",24.320,92.010
"Jampui Hills Trek","North Tripura","Easy",1000,"Oct-Apr","Hill range","Scenic hill trek",24.050,92.280
"Sepahijala Trek","Sepahijala","Easy",50,"Year-round","Wildlife sanctuary","Jungle walk",23.650,91.280
"Neermahal Trek","West Tripura","Easy",50,"Oct-Mar","Water palace","Short heritage trek",23.550,91.300
"Kaziranga Trek","Golaghat","Easy",80,"Nov-Apr","UNESCO site","Wildlife safari trek",26.650,93.350
"Manas Trek","Baksa","Moderate",110,"Nov-Apr","UNESCO biosphere reserve","Forest and wildlife trek",26.700,91.000
"Haflong Trek","Dima Hasao","Moderate",680,"Oct-Apr","Hill station","Scenic trek",25.170,93.020
"Jatinga Trek","Dima Hasao","Easy",600,"Oct-Apr","Bird mystery site","Nature trek",25.450,93.280
"Majuli Trek","Majuli","Easy",85,"Year-round","World’s largest river island","Cultural trek",26.950,94.200
"Umiam Lake Trek","Ri Bhoi","Easy",1000,"Year-round","Reservoir lake","Leisure trek",25.670,91.900
"Shillong Peak Trek","East Khasi Hills","Easy",1965,"Year-round","Highest point in Meghalaya","Short summit trek",25.570,91.880
"David Scott Trail","East Khasi Hills","Moderate",1500,"Oct-Apr","Colonial trail","Historic trekking route",25.300,91.700
"Nongriat Trek","East Khasi Hills","Moderate",1500,"Oct-Apr","Living root bridges","Iconic root bridge trek",25.280,91.730
"Double Decker Bridge Trek","East Khasi Hills","Moderate",1500,"Oct-Apr","Natural root bridges","Famous Meghalaya trek",25.280,91.730
"Mawphlang Trek","East Khasi Hills","Easy",1900,"Year-round","Sacred forest","Cultural forest trek",25.450,91.750
"Laitlum Canyon Trek","East Khasi Hills","Easy",1800,"Year-round","Scenic canyon","Short viewpoint trek",25.440,91.920
"Siju Cave Trek","South Garo Hills","Moderate",600,"Nov-Apr","Limestone caves","Cave trekking",25.350,90.650
"Balpakram Trek","South Garo Hills","Moderate",900,"Nov-Apr","Sacred plateau","Wildlife and mythological trek",25.200,90.850
"Nokrek Trek","West Garo Hills","Moderate",1412,"Nov-Apr","Biosphere reserve","Forest trek",25.480,90.300
"Cherrapunji Trek","East Khasi Hills","Easy",1300,"Year-round","Wettest place","Rainforest trek",25.270,91.730
"Mawsmai Cave Trek","East Khasi Hills","Easy",1200,"Year-round","Limestone cave","Short cave trek",25.270,91.710
"Krem Liat Prah Trek","East Jaintia Hills","Hard",1500,"Nov-Apr","Longest cave system in India","Advanced caving trek",25.250,92.000
"Jowai Trek","West Jaintia Hills","Easy",1380,"Year-round","Cultural region","Village trek",25.450,92.200
"Krang Suri Trek","West Jaintia Hills","Easy",1100,"Year-round","Waterfall trek","Short scenic trek",25.400,92.200
"Umngot River Trek","East Jaintia Hills","Easy",900,"Year-round","Cleanest river","River trekking",25.200,92.000
"Zemithang Trek","Tawang","Moderate",2000,"Apr-Oct","Historic Indo-Tibet route","Remote valley trek",27.700,91.700
"Dirang Trek","West Kameng","Easy",1500,"Year-round","Monastery region","Cultural trek",27.350,92.250
"Bomdila Trek","West Kameng","Easy",2217,"Year-round","Hill station","Short trek",27.260,92.400
"Pakke Tiger Reserve Trek","East Kameng","Moderate",2000,"Nov-Apr","Wildlife reserve","Forest trek",26.980,92.900
"Roing Trek","Lower Dibang Valley","Easy",390,"Year-round","River valley","Short trek",28.100,95.850
"Mayodia Pass Trek","Lower Dibang Valley","Moderate",2655,"Oct-Apr","Snow region","High-altitude trek",28.230,95.700
"Tezu Trek","Lohit","Easy",200,"Year-round","River valley","Cultural trek",27.920,96.170
"Parasuram Kund Trek","Lohit","Easy",500,"Oct-Apr","Pilgrimage site","Spiritual trek",27.860,96.400
"Namdapha Trek","Changlang","Hard",4500,"Nov-Apr","Biodiversity hotspot","Jungle to alpine trek",27.500,96.400
"Chayang Tajo Trek","East Kameng","Moderate",2000,"Oct-Apr","Remote region","Forest trek",27.200,93.500
"Along Trek","West Siang","Easy",300,"Year-round","River valley","Cultural trek",28.170,94.800
"Siang Valley Trek","Siang","Moderate",2000,"Oct-Apr","River valley","Scenic trek",28.400,94.900
"Menchukha Trek","Shi Yomi","Moderate",1800,"Oct-Apr","Remote valley","Beautiful landscapes",28.600,94.120
"Yingkiong Trek","Upper Siang","Moderate",2000,"Oct-Apr","Remote tribal region","Adventure trek",28.650,95.000
"Tuting Trek","Upper Siang","Hard",3000,"Oct-Apr","Near China border","Remote trek",29.200,96.200
"Gelling Trek","Upper Siang","Hard",3500,"Oct-Apr","Border village","High-altitude trek",29.300,96.300
"Anjaw Trek","Anjaw","Moderate",2000,"Oct-Apr","Easternmost district","Remote trek",28.500,97.000
"Walong Trek","Anjaw","Moderate",1100,"Oct-Apr","WWII site","Historic trek",28.100,97.020
"Kibithu Trek","Anjaw","Moderate",1300,"Oct-Apr","India’s easternmost village","Remote trek",28.300,97.050